{"nhits": 28, "parameters": {"dataset": "disponibilite-parkings", "timezone": "UTC", "rows": 10, "start": 0, "format": "json", "facet": ["libelle", "ville", "etat"]}, "records": [{"datasetid": "disponibilite-parkings", "recordid": "10ec3a9afdfe492a01a2e70fc884b7ebd0e7ee19", "fields": {"etat": "FERME", "ville": "Villeneuve d'Ascq", "dispo": 0, "geometry": {"type": "Point", "coordinates": [3.1383831794171, 50.614267583537]}, "max": 1400, "aff": "FERME", "libelle": "Parking TRIOLO", "datemaj": "2021-06-10T11:34:00+00:00", "adresse": "Avenue Paul Langevin", "id": "VAQ0001"}, "record_timestamp": "2021-06-10T11:36:01.837000+00:00"}, {"datasetid": "disponibilite-parkings", "recordid": "3679491d7e15928e039b9cff6347f9b051acf02b", "fields": {"etat": "OUVERT", "ville": "Lille", "dispo": 150, "geometry": {"type": "Point", "coordinates": [3.0640413195595, 50.641585703466]}, "max": 246, "aff": "150", "libelle": "Parking Vieux Lille", "datemaj": "2021-06-10T11:34:00+00:00", "adresse": "Avenue du Peuple Belge", "id": "LIL0010"}, "record_timestamp": "2021-06-10T11:36:01.837000+00:00"}, {"datasetid": "disponibilite-parkings", "recordid": "fa007a4068eb4c41b7135d55565fa27e1da939d2", "fields": {"etat": "OUVERT", "ville": "Roubaix", "dispo": 631, "geometry": {"type": "Point", "coordinates": [3.1794603469077, 50.690935518349]}, "max": 686, "aff": "520", "libelle": "Parking Mac Arthur Glen (Gambetta)", "datemaj": "2021-06-10T11:34:00+00:00", "adresse": "Rue Charles Watteeuw", "id": "RBX0003"}, "record_timestamp": "2021-06-10T11:36:01.837000+00:00"}, {"datasetid": "disponibilite-parkings", "recordid": "2d1927abb686f445debeeec8789d302bc0f36c35", "fields": {"etat": "OUVERT", "ville": "Lille", "dispo": 537, "geometry": {"type": "Point", "coordinates": [3.0759420936069, 50.63975531318]}, "max": 600, "aff": "535", "libelle": "Parking Gare Lille Europe", "datemaj": "2021-06-10T11:34:00+00:00", "adresse": "Avenue de Cologne", "id": "LIL0008"}, "record_timestamp": "2021-06-10T11:36:01.837000+00:00"}, {"datasetid": "disponibilite-parkings", "recordid": "c4b023805ca18e277993e654a53efbf252af8ab3", "fields": {"etat": "ABONNES", "ville": "Tourcoing", "dispo": 150, "geometry": {"type": "Point", "coordinates": [3.1648392586451, 50.722523505561]}, "max": 273, "aff": "ABONNES", "libelle": "Parking Miss Cavell", "datemaj": "2021-06-10T11:34:00+00:00", "adresse": "Avenue Allende", "id": "TCG0002"}, "record_timestamp": "2021-06-10T11:36:01.837000+00:00"}, {"datasetid": "disponibilite-parkings", "recordid": "e157e172c3fbf4ce6a56219c8f3432f1a561c56e", "fields": {"etat": "OUVERT", "ville": "Roubaix", "dispo": 230, "geometry": {"type": "Point", "coordinates": [3.1756508561718, 50.693314568882]}, "max": 1300, "aff": "230", "libelle": "Parking GRAND RUE", "datemaj": "2021-06-10T11:34:00+00:00", "adresse": "Avenue des Nations Unies", "id": "RBX0006"}, "record_timestamp": "2021-06-10T11:36:01.837000+00:00"}, {"datasetid": "disponibilite-parkings", "recordid": "37359ebf6f370b9dc54353974cf36650b54854b0", "fields": {"etat": "OUVERT", "ville": "Roubaix", "dispo": 421, "geometry": {"type": "Point", "coordinates": [3.1788455225921, 50.68932265954]}, "max": 440, "aff": "420", "libelle": "Parking CHURCHILL", "datemaj": "2021-06-10T11:34:00+00:00", "adresse": "Rue du president Vincent Auriol", "id": "RBX0001"}, "record_timestamp": "2021-06-10T11:36:01.837000+00:00"}, {"datasetid": "disponibilite-parkings", "recordid": "2225c55229ec29380e1959a2d4e696bdca397f70", "fields": {"etat": "OUVERT", "ville": "Lille", "dispo": 137, "geometry": {"type": "Point", "coordinates": [3.0766515082135, 50.638774339067]}, "max": 160, "aff": "135", "libelle": "Parking Tours", "datemaj": "2021-06-10T11:34:00+00:00", "adresse": "Boulevard de Turin", "id": "LIL0007"}, "record_timestamp": "2021-06-10T11:36:01.837000+00:00"}, {"datasetid": "disponibilite-parkings", "recordid": "8464e7975a021433c650de638f16b618be1539da", "fields": {"etat": "OUVERT", "ville": "Lille", "dispo": 300, "geometry": {"type": "Point", "coordinates": [3.0613340485781, 50.635417765946]}, "max": 300, "aff": "300", "libelle": "Parking Rihour-Printemps", "datemaj": "2021-06-10T11:34:00+00:00", "adresse": "Place Rihour", "id": "LIL0012"}, "record_timestamp": "2021-06-10T11:36:01.837000+00:00"}, {"datasetid": "disponibilite-parkings", "recordid": "c2c75f4f33811068a857ab0baf62f919a7a59a4a", "fields": {"etat": "OUVERT", "ville": "Lille", "dispo": 62, "geometry": {"type": "Point", "coordinates": [3.0583061274138, 50.635107671686]}, "max": 323, "aff": "60", "libelle": "Parking Plaza", "datemaj": "2021-06-10T11:34:00+00:00", "adresse": "Rue Nationale", "id": "LIL0002"}, "record_timestamp": "2021-06-10T11:36:01.837000+00:00"}], "facet_groups": [{"facets": [{"count": 23, "path": "OUVERT", "state": "displayed", "name": "OUVERT"}, {"count": 2, "path": "FERME", "state": "displayed", "name": "FERME"}, {"count": 1, "path": ".", "state": "displayed", "name": "."}, {"count": 1, "path": "ABONNES", "state": "displayed", "name": "ABONNES"}, {"count": 1, "path": "COMPLET", "state": "displayed", "name": "COMPLET"}], "name": "etat"}, {"facets": [{"count": 16, "path": "Lille", "state": "displayed", "name": "Lille"}, {"count": 6, "path": "Roubaix", "state": "displayed", "name": "Roubaix"}, {"count": 3, "path": "Tourcoing", "state": "displayed", "name": "Tourcoing"}, {"count": 3, "path": "Villeneuve d'Ascq", "state": "displayed", "name": "Villeneuve d'Ascq"}], "name": "ville"}, {"facets": [{"count": 1, "path": "Parking 4CANTONS", "state": "displayed", "name": "Parking 4CANTONS"}, {"count": 1, "path": "Parking Bethune-Lafayette", "state": "displayed", "name": "Parking Bethune-Lafayette"}, {"count": 1, "path": "Parking CENTRE", "state": "displayed", "name": "Parking CENTRE"}, {"count": 1, "path": "Parking CHURCHILL", "state": "displayed", "name": "Parking CHURCHILL"}, {"count": 1, "path": "Parking Euralille", "state": "displayed", "name": "Parking Euralille"}, {"count": 1, "path": "Parking GRAND RUE", "state": "displayed", "name": "Parking GRAND RUE"}, {"count": 1, "path": "Parking Gare Lille Europe", "state": "displayed", "name": "Parking Gare Lille Europe"}, {"count": 1, "path": "Parking Gare Lille Flandres", "state": "displayed", "name": "Parking Gare Lille Flandres"}, {"count": 1, "path": "Parking Grand Palais", "state": "displayed", "name": "Parking Grand Palais"}, {"count": 1, "path": "Parking Grand Place", "state": "displayed", "name": "Parking Grand Place"}, {"count": 1, "path": "Parking Hotel de Ville", "state": "displayed", "name": "Parking Hotel de Ville"}, {"count": 1, "path": "Parking LA POSTE", "state": "displayed", "name": "Parking LA POSTE"}, {"count": 1, "path": "Parking LESPRES", "state": "displayed", "name": "Parking LESPRES"}, {"count": 1, "path": "Parking Les Tanneurs", "state": "displayed", "name": "Parking Les Tanneurs"}, {"count": 1, "path": "Parking Liberte", "state": "displayed", "name": "Parking Liberte"}, {"count": 1, "path": "Parking Mac Arthur Glen (Gambetta)", "state": "displayed", "name": "Parking Mac Arthur Glen (Gambetta)"}, {"count": 1, "path": "Parking Mac Arthur Glen (Lannoy)", "state": "displayed", "name": "Parking Mac Arthur Glen (Lannoy)"}, {"count": 1, "path": "Parking Miss Cavell", "state": "displayed", "name": "Parking Miss Cavell"}, {"count": 1, "path": "Parking Nouveau Siecle", "state": "displayed", "name": "Parking Nouveau Siecle"}, {"count": 1, "path": "Parking Opera", "state": "displayed", "name": "Parking Opera"}, {"count": 1, "path": "Parking Petit Paradis", "state": "displayed", "name": "Parking Petit Paradis"}, {"count": 1, "path": "Parking Plaza", "state": "displayed", "name": "Parking Plaza"}, {"count": 1, "path": "Parking Republique", "state": "displayed", "name": "Parking Republique"}, {"count": 1, "path": "Parking Rihour-Printemps", "state": "displayed", "name": "Parking Rihour-Printemps"}, {"count": 1, "path": "Parking St Christophe", "state": "displayed", "name": "Parking St Christophe"}, {"count": 1, "path": "Parking TRIOLO", "state": "displayed", "name": "Parking TRIOLO"}, {"count": 1, "path": "Parking Tours", "state": "displayed", "name": "Parking Tours"}, {"count": 1, "path": "Parking Vieux Lille", "state": "displayed", "name": "Parking Vieux Lille"}], "name": "libelle"}]}